[{"id":1, "name":"\u535a\u4e16\u6c7d\u8f66\u90e8\u4ef6(\u82cf\u5dde)\u6709\u9650\u516c\u53f8(\u661f\u9f99\u8857)", "province":"\u6c5f\u82cf", "city":"\u82cf\u5dde", "address":"\u5de5\u4e1a\u56ed\u533a\u661f\u9f99\u8857455\u53f7", "latitude":"31.335478", "longitude":"120.794214", "coord_type":0, "location_type":0, "create_date":"2018-06-14 09:32:47", "last_modify":""},
 {"id":2, "name":"\u535a\u4e16\u6c7d\u8f66\u90e8\u4ef6(\u82cf\u5dde)\u6709\u9650\u516c\u53f8", "province":"\u6c5f\u82cf", "city":"\u82cf\u5dde", "address":"\u5de5\u4e1a\u56ed\u533a\u82cf\u8679\u897f\u8def126\u53f7", "latitude":"31.328257", "longitude":"120.667855", "coord_type":0, "location_type":0, "create_date":"2018-06-14 09:44:17", "last_modify":""},
 {"id":3, "name":"\u957f\u57ce\u6c7d\u8f66\u54c8\u5f17\u6280\u672f\u4e2d\u5fc3", "province":"\u6cb3\u5317", "city":"\u4fdd\u5b9a", "address":"\u83b2\u6c60\u533a\u671d\u9633\u5357\u5927\u88572076\u53f7", "latitude":"38.830489", "longitude":"115.461931", "coord_type":0, "location_type":5, "create_date":"2018-06-14 09:48:20", "last_modify":""},
 {"id":4, "name":"\u957f\u57ce\u6c7d\u8f66\u80a1\u4efd\u6709\u9650\u516c\u53f8\u5f90\u6c34\u5206\u516c\u53f8", "province":"\u6cb3\u5317", "city":"\u4fdd\u5b9a", "address":"\u5f90\u6c34\u533a\u9042\u57ce\u9547\u671d\u9633\u5317\u5927\u8857299", "latitude":"39.033158", "longitude":"115.471821", "coord_type":0, "location_type":5, "create_date":"2018-06-14 09:52:23", "last_modify":""}]